[
  {
    "name": "종로3가",
    "lat": 37.571607,
    "lng": 126.991806
  },
  {
    "name": "종로5가",
    "lat": 37.570926,
    "lng": 127.001849
  },
  {
    "name": "동대문",
    "lat": 37.57142,
    "lng": 127.009745
  },
  {
    "name": "신설동",
    "lat": 37.575297,
    "lng": 127.025087
  },
  {
    "name": "제기동",
    "lat": 37.578103,
    "lng": 127.034893
  },
  {
    "name": "청량리",
    "lat": 37.580178,
    "lng": 127.046835
  },
  {
    "name": "동묘앞",
    "lat": 37.572627,
    "lng": 127.016429
  },
  {
    "name": "서울",
    "lat": 37.554648,
    "lng": 126.972559
  },
  {
    "name": "시청",
    "lat": 37.564718,
    "lng": 126.977108
  },
  {
    "name": "종각",
    "lat": 37.570161,
    "lng": 126.982923
  }
]
